[{
        "DivCode": "40",
        "District": "Bagerhat",
        "DistrictCode": "1",
        "lat": "22.651568",
        "longitude": "89.785938"
    },
    {
        "DivCode": "20",
        "District": "Bandarban",
        "DistrictCode": "3",
        "lat": "22.1953275",
        "longitude": "92.2183773"
    },
    {
        "DivCode": "10",
        "District": "Barguna",
        "DistrictCode": "4",
        "lat": "22.0953",
        "longitude": "90.1121"
    },
    {
        "DivCode": "10",
        "District": "Barisal",
        "DistrictCode": "6",
        "lat": "22.7",
        "longitude": "90.366667"
    },
    {
        "DivCode": "10",
        "District": "Bhola",
        "DistrictCode": "9",
        "lat": "22.685923",
        "longitude": "90.648179"
    },
    {
        "DivCode": "50",
        "District": "Bogra",
        "DistrictCode": "10",
        "lat": "24.8465228",
        "longitude": "89.377755"
    },
    {
        "DivCode": "20",
        "District": "Brahmanbaria",
        "DistrictCode": "12",
        "lat": "23.9570904",
        "longitude": "91.1119286"
    },
    {
        "DivCode": "20",
        "District": "Chandpur",
        "DistrictCode": "13",
        "lat": "23.2332585",
        "longitude": "90.6712912"
    },
    {
        "DivCode": "50",
        "District": "Chapai Nawabganj",
        "DistrictCode": "70",
        "lat": "24.5965034",
        "longitude": "88.2775122"
    },
    {
        "DivCode": "20",
        "District": "Chittagong",
        "DistrictCode": "15",
        "lat": "22.335109",
        "longitude": "91.834073"
    },
    {
        "DivCode": "40",
        "District": "Chuadanga",
        "DistrictCode": "18",
        "lat": "23.6401961",
        "longitude": "88.841841"
    },
    {
        "DivCode": "20",
        "District": "Comilla",
        "DistrictCode": "19",
        "lat": "23.4682747",
        "longitude": "91.1788135"
    },
    {
        "DivCode": "20",
        "District": "Cox's Bazar",
        "DistrictCode": "22",
        "lat": "21.45388",
        "longitude": "91.96765"
    },
    {
        "DivCode": "30",
        "District": "Dhaka",
        "DistrictCode": "26",
        "lat": "23.7115253",
        "longitude": "90.4111451"
    },
    {
        "DivCode": "55",
        "District": "Dinajpur",
        "DistrictCode": "27",
        "lat": "25.6217061",
        "longitude": "88.6354504"
    },
    {
        "DivCode": "30",
        "District": "Faridpur",
        "DistrictCode": "29",
        "lat": "23.6070822",
        "longitude": "89.8429406"
    },
    {
        "DivCode": "20",
        "District": "Feni",
        "DistrictCode": "30",
        "lat": "23.023231",
        "longitude": "91.3840844"
    },
    {
        "DivCode": "55",
        "District": "Gaibandha",
        "DistrictCode": "32",
        "lat": "25.328751",
        "longitude": "89.528088"
    },
    {
        "DivCode": "30",
        "District": "Gazipur",
        "DistrictCode": "33",
        "lat": "24.0022858",
        "longitude": "90.4264283"
    },
    {
        "DivCode": "30",
        "District": "Gopalganj",
        "DistrictCode": "35",
        "lat": "23.0050857",
        "longitude": "89.8266059"
    },
    {
        "DivCode": "60",
        "District": "Habiganj",
        "DistrictCode": "36",
        "lat": "24.374945",
        "longitude": "91.41553"
    },
    {
        "DivCode": "65",
        "District": "Jamalpur",
        "DistrictCode": "39",
        "lat": "24.937533",
        "longitude": "89.937775"
    },
    {
        "DivCode": "40",
        "District": "Jessore",
        "DistrictCode": "41",
        "lat": "23.16643",
        "longitude": "89.2081126"
    },
    {
        "DivCode": "10",
        "District": "Jhalokati",
        "DistrictCode": "42",
        "lat": "22.6406",
        "longitude": "90.1987"
    },
    {
        "DivCode": "40",
        "District": "Jhenaidah",
        "DistrictCode": "44",
        "lat": "23.5448176",
        "longitude": "89.1539213"
    },
    {
        "DivCode": "50",
        "District": "Joypurhat",
        "DistrictCode": "38",
        "lat": "25.105101",
        "longitude": "89.028877"
    },
    {
        "DivCode": "20",
        "District": "Khagrachhari",
        "DistrictCode": "46",
        "lat": "23.119285",
        "longitude": "91.984663"
    },
    {
        "DivCode": "40",
        "District": "Khulna",
        "DistrictCode": "47",
        "lat": "22.815774",
        "longitude": "89.568679"
    },
    {
        "DivCode": "30",
        "District": "Kishoreganj",
        "DistrictCode": "48",
        "lat": "24.444937",
        "longitude": "90.776575"
    },
    {
        "DivCode": "55",
        "District": "Kurigram",
        "DistrictCode": "49",
        "lat": "25.805445",
        "longitude": "89.636174"
    },
    {
        "DivCode": "40",
        "District": "Kushtia",
        "DistrictCode": "50",
        "lat": "23.901258",
        "longitude": "89.120482"
    },
    {
        "DivCode": "20",
        "District": "Lakshmipur",
        "DistrictCode": "51",
        "lat": "22.942477",
        "longitude": "90.841184"
    },
    {
        "DivCode": "55",
        "District": "Lalmonirhat",
        "DistrictCode": "52",
        "lat": "25.9171906",
        "longitude": "89.4459534"
    },
    {
        "DivCode": "30",
        "District": "Madaripur",
        "DistrictCode": "54",
        "lat": "23.164102",
        "longitude": "90.1896805"
    },
    {
        "DivCode": "40",
        "District": "Magura",
        "DistrictCode": "55",
        "lat": "23.487337",
        "longitude": "89.419956"
    },
    {
        "DivCode": "30",
        "District": "Manikganj",
        "DistrictCode": "56",
        "lat": "23.8667",
        "longitude": "89.95"
    },
    {
        "DivCode": "60",
        "District": "Maulvibazar",
        "DistrictCode": "58",
        "lat": "24.482934",
        "longitude": "91.777417"
    },
    {
        "DivCode": "40",
        "District": "Meherpur",
        "DistrictCode": "57",
        "lat": "23.762213",
        "longitude": "88.631821"
    },
    {
        "DivCode": "30",
        "District": "Munshiganj",
        "DistrictCode": "59",
        "lat": "23.55",
        "longitude": "90.3667"
    },
    {
        "DivCode": "65",
        "District": "Mymensingh",
        "DistrictCode": "61",
        "lat": "24.743448",
        "longitude": "90.398384"
    },
    {
        "DivCode": "50",
        "District": "Naogaon",
        "DistrictCode": "64",
        "lat": "24.80418",
        "longitude": "88.94875"
    },
    {
        "DivCode": "40",
        "District": "Narail",
        "DistrictCode": "65",
        "lat": "23.172534",
        "longitude": "89.512672"
    },
    {
        "DivCode": "30",
        "District": "Narayanganj",
        "DistrictCode": "67",
        "lat": "23.63366",
        "longitude": "90.496482"
    },
    {
        "DivCode": "30",
        "District": "Narsingdi",
        "DistrictCode": "68",
        "lat": "23.932233",
        "longitude": "90.71541"
    },
    {
        "DivCode": "50",
        "District": "Natore",
        "DistrictCode": "69",
        "lat": "24.420556",
        "longitude": "89.000282"
    },
    {
        "DivCode": "65",
        "District": "Netrakona",
        "DistrictCode": "72",
        "lat": "24.870955",
        "longitude": "90.727887"
    },
    {
        "DivCode": "55",
        "District": "Nilphamari",
        "DistrictCode": "73",
        "lat": "25.931794",
        "longitude": "88.856006"
    },
    {
        "DivCode": "20",
        "District": "Noakhali",
        "DistrictCode": "75",
        "lat": "22.869563",
        "longitude": "91.099398"
    },
    {
        "DivCode": "50",
        "District": "Pabna",
        "DistrictCode": "76",
        "lat": "23.998524",
        "longitude": "89.233645"
    },
    {
        "DivCode": "55",
        "District": "Panchagarh",
        "DistrictCode": "77",
        "lat": "26.3411",
        "longitude": "88.5541606"
    },
    {
        "DivCode": "10",
        "District": "Patuakhali",
        "DistrictCode": "78",
        "lat": "22.3596316",
        "longitude": "90.3298712"
    },
    {
        "DivCode": "10",
        "District": "Pirojpur",
        "DistrictCode": "79",
        "lat": "22.57965",
        "longitude": "89.97521"
    },
    {
        "DivCode": "30",
        "District": "Rajbari",
        "DistrictCode": "82",
        "lat": "23.7574305",
        "longitude": "89.6444665"
    },
    {
        "DivCode": "50",
        "District": "Rajshahi",
        "DistrictCode": "81",
        "lat": "24.7106",
        "longitude": "88.9414"
    },
    {
        "DivCode": "20",
        "District": "Rangamati",
        "DistrictCode": "84",
        "lat": "22.6333308",
        "longitude": "92.1999992"
    },
    {
        "DivCode": "55",
        "District": "Rangpur",
        "DistrictCode": "85",
        "lat": "25.7558096",
        "longitude": "89.244462"
    },
    {
        "DivCode": "40",
        "District": "Satkhira",
        "DistrictCode": "87",
        "lat": "22.723406",
        "longitude": "89.075127"
    },
    {
        "DivCode": "30",
        "District": "Shariatpur",
        "DistrictCode": "86",
        "lat": "23.226",
        "longitude": "90.3748"
    },
    {
        "DivCode": "65",
        "District": "Sherpur",
        "DistrictCode": "89",
        "lat": "25.0204933",
        "longitude": "90.0152966"
    },
    {
        "DivCode": "50",
        "District": "Sirajganj",
        "DistrictCode": "88",
        "lat": "24.4533978",
        "longitude": "89.7006815"
    },
    {
        "DivCode": "60",
        "District": "Sunamganj",
        "DistrictCode": "90",
        "lat": "25.0658042",
        "longitude": "91.3950115"
    },
    {
        "DivCode": "60",
        "District": "Sylhet",
        "DistrictCode": "91",
        "lat": "24.8897956",
        "longitude": "91.8697894"
    },
    {
        "DivCode": "30",
        "District": "Tangail",
        "DistrictCode": "93",
        "lat": "24.24984",
        "longitude": "89.91655"
    },
    {
        "DivCode": "55",
        "District": "Thakurgaon",
        "DistrictCode": "94",
        "lat": "26.0336945",
        "longitude": "88.4616834"
    }
]